,city,cloud,country,date,humidity,lat,lon,temp_max,wind speed
0,Qaanaaq,98,GL,1559775550,77,77.48,-69.36,27.43,1.41
1,Kodiak,40,US,1559775550,13,39.95,-94.76,91.4,3.36
2,Severo-Kurilsk,99,RU,1559775550,98,50.68,156.12,41.29,7.83
3,Avarua,5,CK,1559775550,69,-21.21,-159.78,77.0,16.11
4,Waddan,4,LY,1559775550,25,29.16,16.14,82.51,16.71
5,Chokurdakh,0,RU,1559775550,42,70.62,147.9,41.83,5.77
6,Finschhafen,92,PG,1559775550,93,-6.6,147.85,66.85,2.48
7,Hithadhoo,67,MV,1559775551,80,-0.6,73.08,83.77,11.23
8,Lata,46,IN,1559775551,37,30.78,78.62,34.09,9.53
9,Port Alfred,32,ZA,1559775551,77,-33.59,26.89,57.0,8.99
10,Kahului,40,US,1559775551,43,20.89,-156.47,91.4,13.87
11,Punta Arenas,0,CL,1559775551,65,-53.16,-70.91,44.6,16.11
12,Busselton,100,AU,1559775551,16,-33.64,115.35,66.0,39.84
13,Iqaluit,90,CA,1559775551,70,63.75,-68.52,42.8,9.17
14,Mataura,76,NZ,1559775551,83,-46.19,168.86,41.0,8.9
15,Vaini,86,IN,1559775431,86,15.34,74.49,80.89,1.57
16,Tall Kayf,96,TR,1559775552,19,37.08,41.07,83.59,5.66
17,Te Anau,89,NZ,1559775552,93,-45.41,167.72,37.69,4.74
18,Tongliao,52,CN,1559775552,51,43.61,122.27,74.95,13.13
19,Rikitea,100,PF,1559775281,82,-23.12,-134.97,76.93,11.27
20,Ushuaia,0,AR,1559775533,75,-54.81,-68.31,41.0,3.36
21,Bumba,100,CD,1559775552,93,2.18,22.47,70.63,0.34
22,Coihaique,75,CL,1559775266,87,-45.58,-72.07,44.6,4.7
23,Evensk,21,RU,1559775552,50,61.92,159.24,57.31,6.67
24,Bluff,100,AU,1559775326,51,-23.58,149.07,61.99,18.28
25,Iralaya,20,HN,1559775552,70,15.0,-83.23,86.0,9.17
26,Atambua,91,ID,1559775552,68,-9.11,124.89,79.99,19.1
27,Barrow,100,AR,1559775553,86,-38.31,-60.23,55.69,7.56
28,Dubno,85,UA,1559775553,88,50.42,25.75,62.01,6.2
29,Albany,90,US,1559775352,100,42.65,-73.75,77.0,1.92
30,Thompson,75,CA,1559775553,82,55.74,-97.86,57.2,3.36
31,Lebu,20,ET,1559775553,72,8.96,38.73,59.0,4.7
32,Ust-Maya,89,RU,1559775553,42,60.42,134.54,73.33,5.17
33,Vila Franca do Campo,40,PT,1559775553,82,37.72,-25.43,62.6,9.17
34,Xuddur,40,SO,1559775554,78,4.12,43.89,73.69,18.97
35,Saskylakh,0,RU,1559775554,41,71.97,114.09,45.61,8.5
36,San Patricio,0,PY,1559775554,85,-26.98,-56.83,59.83,8.01
37,Placido de Castro,0,BR,1559775554,73,-10.34,-67.19,74.59,2.01
38,Atuona,29,PF,1559775554,76,-9.8,-139.03,82.51,18.84
39,Saint-Philippe,90,CA,1559775554,72,45.36,-73.48,63.0,2.24
40,Lorengau,96,PG,1559775554,71,-2.02,147.27,85.39,6.22
41,Sangar,41,RU,1559775554,53,63.92,127.47,67.75,8.21
42,Castro,90,CL,1559775555,100,-42.48,-73.76,48.2,18.34
43,Hilo,90,US,1559775555,88,19.71,-155.08,77.0,5.82
44,Tasiilaq,0,GL,1559775555,61,65.61,-37.64,35.6,4.7
45,Hobart,75,AU,1559775535,57,-42.88,147.33,55.0,6.93
46,El Tigre,100,VE,1559775556,67,8.89,-64.25,81.07,9.91
47,Cooma,90,AU,1559775556,100,-36.24,149.13,37.4,12.75
48,Esperance,20,TT,1559775543,74,10.24,-61.45,82.99,11.41
49,Sfantu Gheorghe,40,RO,1559775556,88,44.65,26.83,68.0,3.36
50,Manggar,65,ID,1559775556,83,-2.88,108.27,81.61,5.66
51,Portland,90,US,1559775556,55,45.52,-122.67,66.99,3.36
52,Hasaki,75,JP,1559775556,88,35.73,140.83,72.0,4.7
53,Upernavik,94,GL,1559775556,73,72.79,-56.15,41.47,1.45
54,Axim,88,GH,1559775557,84,4.87,-2.24,79.09,9.55
55,Vanavara,98,RU,1559775557,72,60.35,102.28,58.21,3.0
56,Kangalassy,0,RU,1559775557,72,62.35,129.97,60.8,8.95
57,Kalyan,40,IN,1559775557,79,19.24,73.14,86.0,9.17
58,Constitucion,75,MX,1559775557,14,23.99,-104.67,86.0,8.05
59,Kapaa,40,US,1559775557,69,22.08,-159.32,82.4,14.99
60,Cape Town,75,ZA,1559775557,87,-33.93,18.42,55.99,6.93
61,Mackay,75,CA,1559775557,58,53.65,-115.58,55.4,8.05
62,Jamestown,0,AU,1559775558,67,-33.21,138.6,48.85,4.56
63,Taoudenni,0,ML,1559775558,11,22.68,-3.98,97.27,6.02
64,Yellowknife,75,CA,1559775303,57,62.45,-114.38,50.0,16.11
65,Bredasdorp,59,ZA,1559775558,87,-34.53,20.04,51.8,8.05
66,Vila Velha,20,BR,1559775558,74,-3.71,-38.6,82.4,8.05
67,Carnarvon,66,ZA,1559775558,69,-30.97,22.13,42.19,8.66
68,Upington,100,ZA,1559775558,43,-28.46,21.24,46.4,4.7
69,Ancud,90,CL,1559775558,100,-41.87,-73.83,48.2,18.34
70,Maceio,20,BR,1559775559,83,-9.67,-35.74,75.2,2.24
71,Yerbogachen,100,RU,1559775559,73,61.28,108.01,54.43,0.4
72,Taltal,88,CL,1559775559,67,-25.41,-70.49,61.45,4.59
73,Pochutla,40,MX,1559775559,62,15.74,-96.47,89.01,11.41
74,Puerto Ayora,75,EC,1559775559,54,-0.74,-90.35,84.2,12.75
75,Grindavik,0,IS,1559775368,70,63.84,-22.43,48.2,21.92
76,Nouadhibou,0,MR,1559775559,73,20.93,-17.03,69.8,19.46
77,Kaitangata,84,NZ,1559775559,70,-46.28,169.85,48.99,5.01
78,Tarakan,40,ID,1559775304,94,3.3,117.63,78.8,5.35
79,Karratha,0,AU,1559775560,23,-20.74,116.85,65.41,23.24
80,Tuktoyaktuk,40,CA,1559775560,50,69.44,-133.03,57.2,5.82
81,Mar del Plata,48,AR,1559775268,54,-46.43,-67.52,48.85,21.47
82,Isangel,90,VU,1559775560,83,-19.55,169.27,77.0,5.82
83,Komsomolskiy,100,RU,1559775560,87,67.55,63.78,29.23,6.91
84,Tiksi,0,RU,1559775560,73,71.64,128.87,33.19,8.61
85,Ponta do Sol,0,BR,1559775560,90,-20.63,-46.0,53.89,5.06
86,Clarence Town,0,AU,1559775560,81,-32.59,151.78,52.0,13.87
87,Pedernales,29,EC,1559775560,88,0.07,-80.05,77.47,15.23
88,Cayenne,20,GF,1559775561,83,4.94,-52.33,80.6,4.7
89,Hermanus,55,ZA,1559775561,99,-34.42,19.24,52.0,7.0
90,Georgetown,20,GY,1559775375,83,6.8,-58.16,82.4,13.87
91,Nanakuli,20,US,1559775561,62,21.39,-158.15,86.0,13.87
92,Manzhouli,1,CN,1559775562,49,49.6,117.43,57.13,4.12
93,Adrar,97,DZ,1559775493,9,27.87,-0.29,93.2,5.82
94,Parabel,88,RU,1559775562,64,58.71,81.5,60.91,10.85
95,Dikson,0,RU,1559775562,91,73.51,80.55,31.39,1.97
96,Taft,99,PH,1559775562,86,11.9,125.42,79.81,3.71
97,Shelburne,90,CA,1559775562,100,44.08,-80.2,66.99,13.87
98,Mocuba,0,MZ,1559775562,95,-16.84,36.99,60.55,1.74
99,Vostok,99,RU,1559775562,79,46.45,135.83,64.15,3.04
100,Cabo San Lucas,5,MX,1559775430,60,22.89,-109.91,86.0,17.22
101,Mahebourg,40,MU,1559775414,73,-20.41,57.7,73.4,17.22
102,Lompoc,1,US,1559775563,68,34.64,-120.46,75.0,13.87
103,Gillette,1,US,1559775563,50,44.29,-105.5,80.01,6.93
104,Torbay,90,CA,1559775394,58,47.66,-52.73,57.2,19.46
105,Kavieng,78,PG,1559775563,72,-2.57,150.8,85.39,8.61
106,Auki,37,NG,1559775563,35,12.18,6.51,90.43,11.39
107,Ilulissat,5,GL,1559775563,52,69.22,-51.1,42.8,5.82
108,Pangoa,0,PE,1559775564,67,-12.12,-73.0,70.27,1.79
109,Ugoofaaru,100,MV,1559775564,75,5.67,73.0,83.95,16.82
110,Encantado,0,BR,1559775564,71,-29.24,-51.88,57.99,4.7
111,Miri,91,NG,1559775564,61,10.31,9.75,81.61,11.88
112,Fortuna,0,ES,1559775564,40,38.18,-1.13,73.0,2.24
113,Saint George,40,GR,1559775564,100,39.45,22.34,64.4,4.07
114,Hervey Bay,97,AU,1559775267,67,-25.3,152.85,63.0,9.17
115,Alizai,40,PK,1559775565,53,33.94,71.55,75.2,9.17
116,Tevaitoa,11,PF,1559775565,80,-16.78,-151.5,81.25,17.98
117,San Jose,100,PH,1559775552,57,15.79,120.99,86.29,7.36
118,Honiara,40,SB,1559775566,79,-9.43,159.96,84.2,2.24
119,Mpanda,16,TZ,1559775566,72,-6.34,31.07,57.67,0.76
120,Yar-Sale,100,RU,1559775481,94,66.83,70.83,34.09,11.14
121,Togur,66,RU,1559775566,66,58.36,82.83,59.83,11.01
122,Boralday,75,KZ,1559775566,82,43.36,76.86,62.6,4.47
123,Saldanha,17,PT,1559775566,73,41.42,-6.55,45.97,3.15
124,Tessalit,0,ML,1559775566,9,20.2,1.01,93.31,7.18
125,Ucluelet,90,CA,1559775427,87,48.94,-125.55,59.0,8.05
126,Nyurba,2,RU,1559775566,42,63.29,118.35,67.39,4.0
127,Payo,51,ID,1559775567,86,-3.75,103.64,71.71,2.77
128,Sola,0,FI,1559775567,82,62.78,29.36,57.2,3.69
129,Samarai,100,PG,1559775567,93,-10.62,150.67,76.39,7.78
130,Nikolskoye,0,RU,1559775567,67,59.7,30.79,62.6,2.24
131,Acapulco,75,MX,1559775567,70,16.86,-99.88,87.8,2.24
132,Cherskiy,60,RU,1559775567,30,68.75,161.3,44.71,7.81
133,Paamiut,100,GL,1559775567,71,61.99,-49.67,40.21,25.77
134,Piedade,64,BR,1559775568,81,-23.71,-47.43,62.01,8.01
135,Arraial do Cabo,75,BR,1559775310,88,-22.97,-42.02,66.2,2.24
136,Nuuk,75,GL,1559775568,58,64.17,-51.74,48.2,11.41
137,Leningradskiy,40,RU,1559775568,88,69.38,178.42,34.45,4.68
138,Arona,40,IT,1559775568,52,45.76,8.56,73.0,8.05
139,Dakar,20,SN,1559775523,78,14.69,-17.45,75.2,8.05
140,Ban Tak,100,TH,1559775568,78,17.04,99.08,77.83,3.83
141,Dongsheng,94,CN,1559775568,74,29.72,112.52,74.95,10.96
142,Ust-Koksa,100,RU,1559775569,75,50.27,85.62,46.51,5.64
143,Marsaxlokk,0,MT,1559775569,82,35.84,14.54,70.0,9.17
144,Creel,0,MX,1559775569,33,27.75,-107.63,70.09,13.04
145,Paka,0,HR,1559775569,93,45.29,18.06,63.0,4.7
146,Sandusky,1,US,1559775569,83,41.45,-82.71,81.0,8.05
147,Oktyabrskoye,0,RU,1559775569,81,56.73,85.44,55.0,4.47
148,Mumbwa,0,ZM,1559775569,63,-14.99,27.06,54.97,2.86
149,Jacareacanga,39,BR,1559775570,71,-6.22,-57.76,78.37,1.54
150,Cidreira,4,BR,1559775570,76,-30.17,-50.22,64.87,14.74
151,Sur,0,OM,1559775565,46,22.57,59.53,91.15,11.45
152,Poltavka,1,RU,1559775570,88,54.36,71.76,47.41,6.06
153,Khatanga,27,RU,1559775570,54,71.98,102.47,53.71,4.41
154,Mount Isa,83,AU,1559775570,43,-20.73,139.49,51.8,10.29
155,Davenda,0,RU,1559775570,43,53.56,119.32,63.79,2.53
156,Ladario,17,PT,1559775570,88,40.7,-7.74,55.0,3.0
157,Kulunda,29,RU,1559775571,69,52.57,78.94,59.11,10.76
158,Codrington,0,AU,1559775571,87,-28.95,153.24,57.0,5.82
159,Derazhnya,93,UA,1559775571,93,49.27,27.43,61.81,7.29
160,Marawi,100,PH,1559775571,95,8.0,124.29,75.0,5.01
161,Bambous Virieux,40,MU,1559775571,73,-20.34,57.76,73.4,17.22
162,Conceicao do Araguaia,22,BR,1559775442,64,-8.26,-49.26,78.01,1.54
163,Henties Bay,0,NA,1559775571,97,-22.12,14.28,54.0,1.99
164,Lavrentiya,14,RU,1559775571,49,65.58,-170.99,57.85,6.06
165,Yulara,0,AU,1559775572,65,-25.24,130.99,41.0,9.17
166,Baturaja,74,ID,1559775572,96,-4.12,104.17,73.33,3.22
167,Angoche,2,MZ,1559775572,93,-16.23,39.91,69.55,4.34
168,Kruisfontein,63,ZA,1559775455,84,-34.0,24.73,51.55,14.81
169,Daokou,99,CN,1559775572,48,35.61,105.12,61.99,5.28
170,Port Lincoln,0,AU,1559775484,63,-34.72,135.86,55.51,6.31
171,Kibala,20,TD,1559775572,69,9.11,18.35,80.6,9.31
172,Nanortalik,98,GL,1559775572,67,60.14,-45.24,40.21,22.88
173,Abu Kamal,100,SY,1559775572,20,34.45,40.92,91.51,11.52
174,West Lafayette,75,US,1559775572,88,40.43,-86.91,82.4,6.71
175,Ostrovnoy,0,RU,1559775573,82,68.05,39.51,39.67,5.17
176,Broome,90,GB,1559775573,93,52.47,1.45,54.0,6.93
177,Sao Felix do Xingu,25,BR,1559775573,78,-6.64,-51.99,73.69,3.49
178,Portel,0,PT,1559775573,47,38.31,-7.71,59.0,9.17
179,Kentau,17,KZ,1559775573,68,43.52,68.5,65.59,3.94
180,Itaituba,50,BR,1559775573,71,-4.26,-55.99,80.17,2.53
181,Santiago del Estero,0,AR,1559775309,54,-27.8,-64.26,67.57,12.77
182,Kamskiye Polyany,40,RU,1559775573,87,55.43,51.42,59.0,15.66
183,Babushkin,100,RU,1559775573,85,51.72,105.86,42.73,5.28
184,Ust-Kalmanka,100,RU,1559775574,92,52.12,83.31,60.37,6.24
185,Ambilobe,0,MG,1559775496,72,-13.19,49.05,69.37,8.41
186,Yalutorovsk,52,RU,1559775574,91,56.65,66.31,51.01,4.0
187,Imbituba,40,BR,1559775501,93,-28.24,-48.67,62.6,3.36
188,Sitka,35,US,1559775574,75,37.17,-99.65,73.99,3.0
189,Xining,14,CN,1559775574,60,36.62,101.77,51.73,1.68
190,Comodoro Rivadavia,0,AR,1559775574,47,-45.87,-67.48,57.2,9.17
191,Lagoa,0,PT,1559775574,55,37.14,-8.45,61.0,13.87
192,Birao,100,CF,1559775575,56,10.3,22.78,83.77,7.18
193,Banda Aceh,99,ID,1559775575,75,5.56,95.32,83.77,10.22
194,Faanui,4,PF,1559775575,79,-16.48,-151.75,81.97,19.26
195,Lerwick,48,GB,1559775575,93,60.15,-1.15,48.2,3.36
196,Pevek,9,RU,1559775575,82,69.7,170.27,33.37,3.85
197,Tolaga Bay,99,NZ,1559775575,52,-38.37,178.3,52.45,5.3
198,Coquimbo,40,CL,1559775575,87,-29.95,-71.34,55.4,6.93
199,East London,99,ZA,1559775371,70,-33.02,27.91,49.39,3.8
200,Brewster,90,US,1559775448,93,41.76,-70.08,71.01,11.41
201,Machiques,100,VE,1559775576,97,10.06,-72.55,57.49,2.24
202,Amasia,26,TR,1559775576,38,40.08,43.97,73.4,4.7
203,Launceston,90,AU,1559775576,81,-41.43,147.14,50.0,6.93
204,Sidrolandia,0,BR,1559775555,55,-20.93,-54.96,66.2,6.93
205,Eirunepe,44,BR,1559775576,73,-6.66,-69.87,76.93,2.08
206,Katsuura,20,JP,1559775576,88,33.93,134.5,77.0,2.24
207,Ust-Kuyga,0,RU,1559775576,37,70.0,135.55,49.39,13.6
208,Uddevalla,95,SE,1559775576,93,58.35,11.94,63.0,5.53
209,Chapais,90,CA,1559775576,66,49.78,-74.86,50.0,12.75
210,Sheridan,75,US,1559775377,40,39.65,-105.03,80.01,6.93
211,Kasongo,0,CD,1559775577,59,-4.43,26.67,70.09,1.9
212,Luderitz,27,NA,1559775577,87,-26.65,15.16,53.6,12.75
213,Salekhard,87,RU,1559775577,84,66.54,66.62,32.65,11.86
214,Petropavlovsk-Kamchatskiy,75,RU,1559775577,87,53.05,158.65,48.2,4.47
215,Husavik,94,CA,1559775577,20,50.56,-96.99,73.0,5.01
216,Ola,74,RU,1559775577,70,59.58,151.3,48.13,16.06
217,Sibolga,100,ID,1559775578,75,1.74,98.78,82.15,4.07
218,Ouallam,71,NE,1559775578,25,14.32,2.08,97.81,2.59
219,Vila,40,IT,1559775578,52,45.18,8.4,72.0,8.05
220,Mnogovershinnyy,86,RU,1559775578,64,53.94,139.92,57.31,0.07
221,Kislovodsk,75,RU,1559775578,88,43.91,42.72,64.0,11.18
222,Loding,1,DE,1559775578,60,48.05,12.68,69.01,4.7
223,Inta,50,RU,1559775578,68,66.04,60.13,46.69,5.3
224,Margate,75,AU,1559775579,57,-43.03,147.26,55.0,6.93
225,Ribeira Grande,2,PT,1559775579,87,38.52,-28.7,64.69,16.42
226,Salalah,40,OM,1559775579,79,17.01,54.1,86.0,8.05
227,San Quintin,91,PH,1559775579,63,17.54,120.52,87.01,1.92
228,Les Cayes,15,HT,1559775579,81,18.19,-73.75,82.69,15.82
229,Vardo,1,US,1559775579,69,39.62,-77.74,77.0,6.93
230,Clyde,100,NZ,1559775580,73,-45.19,169.32,46.99,6.89
231,Namibe,0,AO,1559775580,66,-15.19,12.15,71.71,5.19
232,Grafton,0,AU,1559775580,93,-29.69,152.93,54.0,2.91
233,Guerrero Negro,5,MX,1559775580,85,27.97,-114.04,65.59,12.93
234,Narsaq,100,GL,1559775580,55,60.91,-46.05,46.4,10.29
235,Aklavik,40,CA,1559775580,41,68.22,-135.01,60.8,10.29
236,Zhigansk,68,RU,1559775580,55,66.77,123.37,61.99,8.25
237,Eyl,100,SO,1559775580,65,7.98,49.82,80.71,21.12
238,Salaga,63,GH,1559775581,79,8.55,-0.52,78.91,7.45
239,Rapid Valley,90,US,1559775581,72,44.06,-103.15,77.0,11.41
240,Port Hardy,75,CA,1559775581,76,50.7,-127.42,57.2,12.75
241,Fort Wayne,75,US,1559775329,65,41.08,-85.14,82.0,11.41
242,Provideniya,75,RU,1559775581,81,64.42,-173.23,42.8,11.18
243,Jaisalmer,0,IN,1559775581,27,26.91,70.91,94.03,5.77
244,Beringovskiy,100,RU,1559775581,62,63.05,179.32,53.17,8.88
245,Deputatskiy,0,RU,1559775581,37,69.3,139.9,44.89,9.91
246,Kaeo,8,NZ,1559775581,100,-35.1,173.78,60.01,15.79
247,Arlit,100,NE,1559775582,18,18.74,7.39,99.97,5.23
248,Meulaboh,100,ID,1559775582,81,4.14,96.13,79.63,6.67
249,Luau,34,CD,1559775582,58,-10.7,22.23,57.67,2.57
250,Matale,99,LK,1559775582,86,7.47,80.62,74.05,3.44
251,Galveston,40,US,1559775582,73,40.58,-86.19,82.4,5.82
252,Peterhead,75,AU,1559775582,62,-34.83,138.5,53.01,6.93
253,Zverinogolovskoye,95,RU,1559775582,90,54.46,64.85,51.73,18.07
254,Iquitos,40,PE,1559775510,319,-3.75,-73.25,42.8,4.7
255,Manokwari,79,ID,1559775582,65,-0.87,134.08,80.35,4.29
256,Geraldton,20,CA,1559775582,32,49.72,-86.95,66.2,8.05
257,Praya,40,ID,1559775583,100,-8.71,116.27,69.8,6.31
258,Waingapu,77,ID,1559775583,76,-9.65,120.26,75.67,16.42
259,Popondetta,69,PG,1559775583,49,-8.77,148.24,79.99,1.9
260,Mwanza,40,TZ,1559775583,78,-2.52,32.9,71.6,6.93
261,Cap Malheureux,40,MU,1559775583,73,-19.98,57.61,73.4,17.22
262,Sanchazi,0,CN,1559775583,73,30.43,103.62,84.99,4.47
263,Bagdarin,7,RU,1559775583,55,54.44,113.59,57.67,3.09
264,Jalu,0,LY,1559775583,31,29.03,21.55,80.53,10.96
265,Plaster Rock,75,CA,1559775584,34,46.91,-67.4,68.0,5.82
266,Mayumba,94,GA,1559775584,82,-3.44,10.65,74.95,5.64
267,Muros,75,ES,1559775480,87,42.77,-9.06,57.0,4.7
268,Wang Saphung,100,TH,1559775584,85,17.3,101.77,73.87,1.9
269,New Norfolk,75,AU,1559775584,57,-42.78,147.06,55.0,6.93
270,Bethel,1,US,1559775584,62,60.79,-161.76,55.4,11.41
271,Rundu,0,NA,1559775585,27,-17.91,19.77,55.4,2.24
272,Papara,20,BR,1559775585,74,-3.98,-38.73,82.4,8.05
273,General Roca,20,AR,1559775585,50,-39.03,-67.58,57.2,3.36
274,Povenets,95,RU,1559775585,88,62.85,34.83,51.19,4.25
275,Suez,91,EG,1559775585,47,29.97,32.54,80.17,10.07
276,Morwell,95,AU,1559775585,96,-38.24,146.4,50.0,4.0
277,Port Elizabeth,75,US,1559775585,94,39.31,-74.98,81.0,10.29
278,Okha,35,RU,1559775585,86,53.59,142.95,40.21,4.74
279,Abalak,22,NE,1559775586,29,15.46,6.28,92.77,7.78
280,Yeppoon,0,AU,1559775586,58,-23.13,150.74,55.4,6.93
281,Lasa,0,CY,1559775586,59,34.92,32.53,71.6,3.56
282,Laguna,40,MX,1559775586,40,27.52,-110.01,89.6,16.11
283,Madaoua,67,NE,1559775586,26,14.07,5.96,94.93,10.8
284,Victoria,75,BN,1559775334,94,5.28,115.24,80.6,1.12
285,Luebo,6,CD,1559775587,49,-5.35,21.42,67.75,2.62
286,Touros,20,BR,1559775587,88,-5.2,-35.46,77.0,3.36
287,Okhotsk,0,RU,1559775587,58,59.36,143.24,57.49,8.25
288,Mogadishu,77,SO,1559775587,82,2.04,45.34,78.01,12.71
289,Christchurch,38,NZ,1559775587,70,-43.53,172.64,51.01,5.82
290,Montes Altos,40,BR,1559775587,74,-5.83,-47.07,82.4,2.28
291,Huilong,15,CN,1559775587,88,28.89,110.18,74.41,0.6
292,Huarmey,27,PE,1559775588,88,-10.07,-78.15,63.25,14.79
293,Chuy,95,UY,1559775588,73,-33.69,-53.46,64.15,17.22
294,Klaksvik,96,FO,1559775334,93,62.23,-6.59,42.8,6.93
295,Jhang,40,PK,1559775588,49,33.67,72.7,78.01,13.87
296,Longyearbyen,90,NO,1559775588,80,78.22,15.63,35.6,12.75
297,Pangnirtung,90,CA,1559775588,33,66.15,-65.72,48.2,3.56
298,Mitu,27,IR,1559775588,50,36.2,46.09,64.15,3.18
299,Tuatapere,82,NZ,1559775588,83,-46.13,167.69,41.0,29.82
300,Jizan,89,SA,1559775588,67,16.89,42.56,93.2,3.36
301,Saint-Pierre,75,FR,1559775589,93,48.95,4.24,53.6,12.75
302,Yenotayevka,100,RU,1559775589,43,47.24,47.04,69.73,12.5
303,Sambava,8,MG,1559775589,97,-14.27,50.17,64.15,4.32
304,Dingle,99,PH,1559775571,64,11.0,122.67,84.49,10.18
305,Vacaria,0,BR,1559775589,74,-28.51,-50.94,57.0,5.01
306,Havre-Saint-Pierre,20,CA,1559775590,76,50.23,-63.6,48.2,12.75
307,Pahrump,20,US,1559775590,13,36.21,-115.98,100.0,8.05
308,Wanning,24,AT,1559775590,64,48.64,13.53,69.8,9.17
309,Sept-Iles,40,CA,1559775590,66,50.2,-66.38,51.8,9.17
310,Bennington,75,US,1559775590,56,42.88,-73.2,75.2,9.17
311,Saurimo,23,AO,1559775590,53,-9.66,20.4,57.85,4.43
312,Bang Saphan,100,TH,1559775590,76,11.21,99.51,80.89,4.27
313,Floriano,0,BR,1559775374,54,-6.77,-43.02,77.83,2.17
314,Sobolevo,0,RU,1559775591,95,54.43,31.9,59.29,5.82
315,Craig,20,US,1559775591,25,40.52,-107.55,78.8,6.93
316,Ipanema,0,BR,1559775591,82,-30.14,-51.22,64.4,8.05
317,Airai,91,TL,1559775591,58,-8.93,125.41,77.65,8.84
318,Necochea,100,AR,1559775591,83,-38.55,-58.74,57.99,3.0
319,Neiafu,20,TO,1559775591,78,-18.65,-173.98,80.6,9.17
320,Nelson,67,CA,1559775592,41,49.49,-117.29,61.09,9.24
321,Namatanai,55,PG,1559775592,83,-3.66,152.44,81.43,8.37
322,Baijiantan,82,CN,1559775592,42,45.63,85.18,72.43,9.08
323,Thinadhoo,96,MV,1559775592,78,0.53,72.93,83.95,12.3
324,Xichang,72,CN,1559775592,86,27.88,102.25,59.29,1.3
325,Nuevitas,40,CU,1559775592,58,21.55,-77.27,87.8,13.87
326,Manta,53,RO,1559775593,90,45.1,24.1,54.97,6.51
327,Butaritari,55,KI,1559775593,79,3.07,172.79,85.21,16.06
328,Kloulklubed,75,PW,1559775593,83,7.04,134.26,82.4,13.8
329,Sanchor,0,IN,1559775593,64,24.76,71.77,88.81,12.46
330,Ca Mau,100,VN,1559775593,85,9.18,105.15,81.61,2.21
331,Bolitoc,100,PH,1559775593,67,15.74,119.88,86.47,4.79
332,Pangody,100,RU,1559775593,71,65.85,74.49,49.21,8.79
333,Hualmay,30,PE,1559775594,88,-11.1,-77.61,62.71,15.5
334,Varhaug,0,NO,1559775594,87,58.61,5.65,55.99,3.36
335,Ayan,0,TR,1559775594,90,40.67,33.6,52.09,2.24
336,Sai Buri,100,TH,1559775594,94,6.7,101.62,74.95,2.71
337,Muroto,20,JP,1559775594,73,33.37,134.14,71.6,5.82
338,Pisco,40,PE,1559775594,30,-13.71,-76.2,71.6,11.41
339,Florianopolis,40,BR,1559775438,93,-27.6,-48.55,66.0,3.36
340,Teguise,40,ES,1559775594,72,29.06,-13.56,68.0,11.41
341,Bonavista,52,CA,1559775595,71,48.65,-53.11,49.39,13.31
342,Tairua,95,NZ,1559775595,69,-37.02,175.85,53.01,8.01
343,Tautira,75,PF,1559775595,83,-17.73,-149.15,80.6,14.99
344,Nivala,100,FI,1559775595,59,63.93,24.96,63.0,1.01
345,Nara,20,JP,1559775595,83,34.68,135.8,77.0,5.82
346,Nanzhang,64,CN,1559775595,77,31.78,111.84,69.55,4.41
347,Saint-Georges,60,CA,1559775527,44,46.12,-70.67,64.0,2.73
348,Nyagan,87,RU,1559775596,87,62.14,65.43,41.11,7.07
349,Buchanan,75,LR,1559775596,88,5.88,-10.05,78.8,8.93
350,Kalawit,90,PH,1559775596,72,7.91,122.53,81.97,4.03
351,Tucuman,0,PE,1559775596,51,-17.17,-70.89,59.11,2.13
352,Sistranda,0,NO,1559775596,72,63.73,8.83,59.0,6.93
353,Merke,95,KZ,1559775596,47,42.87,73.19,65.59,12.82
354,Ende,73,ID,1559775596,76,-8.84,121.65,78.73,9.46
355,Igarka,97,RU,1559775597,92,67.47,86.57,43.63,10.18
356,Kyenjojo,99,UG,1559775597,98,0.61,30.64,59.83,0.83
357,Turbat,56,PK,1559775597,15,26.0,63.05,94.21,4.21
358,Porangatu,91,BR,1559775597,58,-13.44,-49.14,72.79,3.2
359,Tashtagol,83,RU,1559775597,62,52.76,87.85,57.85,7.0
360,Durban,0,FR,1559775597,93,43.54,0.58,55.4,5.82
361,Synya,93,RU,1559775597,68,65.37,58.04,48.49,4.88
362,San Jeronimo,0,PE,1559775598,80,-13.65,-73.37,41.11,2.64
363,Iquique,90,CL,1559775471,63,-20.22,-70.14,64.4,12.75
364,Achit,44,RU,1559775598,67,56.8,57.9,44.71,4.29
365,Krasnoturansk,0,RU,1559775598,87,54.32,91.57,48.2,2.24
366,Chon Daen,100,TH,1559775598,76,16.19,100.86,83.59,3.58
367,Portales,90,US,1559775598,82,34.19,-103.33,57.2,19.46
368,Raahe,83,FI,1559775598,63,64.68,24.47,60.8,9.17
369,Kysyl-Syr,9,RU,1559775598,43,63.9,122.77,67.21,4.85
370,Dillon,1,US,1559775599,27,45.22,-112.64,79.0,3.36
371,Whitehorse,75,CA,1559775599,36,60.72,-135.06,60.8,4.7
372,Fairbanks,75,US,1559775599,34,64.84,-147.72,72.0,2.37
373,Bereda,20,ES,1559775599,76,43.27,-7.54,53.6,6.93
374,Bremerton,90,US,1559775315,94,38.4,-75.51,78.01,12.75
375,Palmer,75,AU,1559775600,62,-34.85,139.16,53.01,6.93
376,Kushima,75,JP,1559775600,100,31.5,131.29,71.6,1.12
377,Bende,100,NG,1559775600,89,7.83,8.63,75.85,8.59
378,Aneho,20,TG,1559775600,83,6.23,1.6,80.6,13.87
379,Nioki,0,CD,1559775600,46,-2.72,17.69,71.71,2.1
380,Aitape,100,PG,1559775600,67,-3.15,142.36,84.49,4.72
381,Pacifica,20,US,1559775425,64,37.61,-122.49,80.6,13.87
382,Panama City,40,US,1559775600,66,30.16,-85.65,86.0,9.17
383,Santa Margherita Ligure,0,IT,1559775601,68,44.33,9.21,69.8,6.93
384,Rio Brilhante,0,BR,1559775601,82,-21.8,-54.54,56.95,6.55
385,Campohermoso,0,ES,1559775601,82,36.94,-2.13,66.0,4.7
386,Nantucket,90,US,1559775601,93,41.28,-70.1,66.2,11.41
387,Sharjah,0,AE,1559775431,28,25.36,55.39,96.8,3.36
388,Magadan,77,RU,1559775601,71,59.56,150.8,49.03,12.06
389,Sohbatpur,0,PK,1559775602,12,28.52,68.54,92.77,5.5
390,Gorele,75,TR,1559775603,88,41.03,39.0,73.4,1.03
391,Labuhan,50,ID,1559775603,79,-2.54,115.51,80.35,0.98
392,Kilgore,90,US,1559775332,94,32.39,-94.88,77.0,3.36
393,Atasu,36,KZ,1559775603,61,48.68,71.64,50.83,8.88
394,Cabra,0,ES,1559775603,47,37.47,-4.43,62.01,3.36
395,Wote,14,KE,1559775604,92,-1.78,37.63,60.19,2.84
396,Port Hawkesbury,90,CA,1559775336,81,45.62,-61.36,55.99,9.17
397,Ketchikan,75,US,1559775604,58,55.34,-131.65,59.0,16.11
398,Tarko-Sale,57,RU,1559775604,53,64.92,77.78,57.0,12.91
399,Tiznit,0,MA,1559775604,79,29.7,-9.73,67.75,13.09
400,Ahipara,64,NZ,1559775604,100,-35.17,173.16,60.01,24.07
401,Broken Hill,90,AU,1559775604,86,-31.97,141.45,37.4,5.82
402,Conceicao da Barra,1,BR,1559775605,80,-18.59,-39.73,68.29,6.35
403,Vikulovo,0,RU,1559775605,89,55.07,40.96,54.25,3.0
404,La Ronge,40,CA,1559775605,39,55.1,-105.3,66.2,9.17
405,Panzhihua,24,CN,1559775605,55,26.59,101.72,74.41,1.5
406,Mae Sai,20,MM,1559775605,100,20.44,99.89,75.2,0.27
407,Clyde River,90,CA,1559775605,100,70.47,-68.59,33.8,5.82
408,Gravdal,78,NO,1559775606,87,59.79,5.78,53.6,5.82
409,Rassvet,0,MD,1559775606,93,47.2,28.43,66.0,3.36
410,Cruzeiro do Sul,20,BR,1559775606,88,-7.63,-72.67,77.0,1.72
411,Aykhal,0,RU,1559775606,76,65.95,111.51,51.8,2.24
412,Simpang Empat,75,MY,1559775607,88,6.02,100.38,80.6,2.24
413,Kharakvasla,79,IN,1559775607,92,18.43,73.77,74.41,5.37
414,Aguas Formosas,1,BR,1559775607,85,-17.08,-40.94,64.33,7.36
415,Komatsu,75,JP,1559775607,77,36.4,136.45,73.0,5.82
416,Berlevag,1,NO,1559775607,82,70.86,29.09,41.11,9.82
417,Los Llanos de Aridane,75,ES,1559775607,68,28.66,-17.92,69.8,13.87
418,Norman Wells,75,CA,1559775607,70,65.28,-126.83,46.4,9.17
419,Seoul,20,KR,1559775582,82,37.57,126.98,69.8,3.36
420,Anadyr,0,RU,1559775608,66,64.73,177.51,53.6,6.71
421,Gua Musang,99,MY,1559775608,97,4.88,101.97,67.39,1.25
422,Tsuruga,100,JP,1559775608,84,35.64,136.07,66.49,5.41
423,San Cristobal,40,EC,1559775608,56,-0.39,-78.55,68.0,14.99
424,Hirara,40,JP,1559775608,94,24.8,125.28,82.4,9.17
425,Hohhot,0,CN,1559775608,71,40.81,111.65,55.4,6.71
426,Stonewall,75,CA,1559775609,22,50.13,-97.33,80.01,9.17
427,Borovichi,0,RU,1559775609,88,58.39,33.91,59.47,1.77
428,Mount Gambier,40,AU,1559775597,100,-37.83,140.78,48.2,5.82
429,Toppenish,75,US,1559775609,44,46.38,-120.31,77.0,18.34
430,Tateyama,75,JP,1559775609,82,36.66,137.31,73.0,4.7
431,Uglezavodsk,75,RU,1559775609,87,47.32,142.63,50.0,4.47
432,Ojinaga,1,US,1559775609,14,29.56,-104.41,95.0,10.29
433,Kensington,20,CA,1559775610,63,46.44,-63.64,60.8,12.75
434,Pierre,1,US,1559775610,34,44.37,-100.35,82.99,3.36
435,Malpe,75,IN,1559775610,94,13.35,74.72,75.2,4.7
436,Yumen,100,CN,1559775610,24,40.29,97.04,73.87,13.91
437,Nortelandia,0,BR,1559775610,65,-14.45,-56.8,70.81,2.73
438,Alihe,79,CN,1559775610,55,50.57,123.73,61.09,3.24
439,Mandalgovi,34,MN,1559775611,47,45.76,106.27,57.49,15.7
440,Ranong,100,TH,1559775611,78,9.96,98.62,81.79,4.0
441,Tucumcari,90,US,1559775611,77,35.17,-103.73,66.0,12.75
442,Bad Ischl,0,AT,1559775611,60,47.71,13.62,68.0,4.7
443,Hamilton,75,BM,1559775511,88,32.3,-64.78,75.99,10.29
444,Batagay-Alyta,0,RU,1559775612,48,67.8,130.41,41.29,6.02
445,Lufkin,90,US,1559775441,88,31.34,-94.73,77.0,5.82
446,Kinablangan,100,PH,1559775612,70,7.69,126.55,80.17,0.81
447,Cabedelo,20,BR,1559775612,83,-6.97,-34.84,77.0,6.93
448,Malibago,72,PH,1559775612,85,13.08,121.45,80.01,4.16
449,Mezen,38,RU,1559775612,90,65.85,44.24,38.23,9.53
450,Fukue,0,JP,1559775612,69,35.03,136.69,77.0,14.99
451,Camacha,40,PT,1559775612,68,33.08,-16.33,66.2,8.05
452,Tambacounda,0,SN,1559775612,63,13.77,-13.67,93.2,6.93
453,Kabanjahe,40,ID,1559775613,100,3.1,98.49,77.0,3.36
454,Kampene,0,CD,1559775613,76,-3.59,26.67,64.51,2.46
455,Ibotirama,4,BR,1559775613,51,-12.18,-43.22,72.97,6.4
456,Baraya,59,NE,1559775613,26,13.54,6.96,97.27,11.59
457,Fujinomiya,40,JP,1559775613,100,35.24,138.62,75.0,4.7
458,Egvekinot,100,RU,1559775613,79,66.32,-179.17,45.97,5.3
459,Traverse City,90,US,1559775613,72,44.76,-85.62,69.8,6.93
460,Saint Simons,40,US,1559775613,78,31.14,-81.39,84.99,14.99
461,Phan Thiet,94,VN,1559775614,70,10.93,108.1,81.43,5.64
462,Borisoglebskiy,0,RU,1559775614,87,57.26,39.15,53.6,4.9
463,Lokosovo,94,RU,1559775614,49,61.13,74.84,60.37,9.31
464,Point Fortin,20,TT,1559775614,74,10.16,-61.68,82.99,11.41
465,Proastion,40,GR,1559775614,100,39.49,21.9,60.8,6.26
466,Padang,40,ID,1559775615,94,-0.92,100.36,77.0,1.12
467,Karlstad,65,SE,1559775615,88,59.38,13.5,64.99,3.36
468,Asha,1,RU,1559775615,82,54.99,57.29,42.37,0.69
469,Peniche,20,PT,1559775541,72,39.36,-9.38,59.0,5.82
470,Vedea,99,RO,1559775615,95,44.78,24.62,55.33,6.04
471,Luanda,75,AO,1559775615,88,-8.83,13.24,73.4,4.7
472,Hajnowka,37,PL,1559775615,80,52.74,23.58,68.0,1.01
473,Thunder Bay,75,CA,1559775547,49,48.41,-89.26,68.0,5.82
474,Issoire,0,FR,1559775615,87,45.54,3.25,44.6,5.82
475,Cockburn Town,0,TC,1559775608,81,21.46,-71.14,81.43,13.11
476,Datong,0,CN,1559775616,57,40.09,113.3,63.61,1.86
477,Normandin,75,CA,1559775611,51,48.84,-72.53,59.0,4.7
478,Hambantota,100,LK,1559775551,82,6.12,81.12,82.87,15.5
479,Brownwood,40,US,1559775616,62,31.71,-98.99,93.99,2.28
480,Urusha,7,RU,1559775616,48,54.05,122.9,69.55,4.83
481,Sao Domingos do Maranhao,3,BR,1559775616,73,-5.58,-44.39,74.95,3.33
482,Senador Canedo,0,BR,1559775616,60,-16.7,-49.09,69.8,9.17
483,Erenhot,96,CN,1559775616,16,43.65,111.97,76.03,21.94
484,Rocha,94,UY,1559775386,84,-34.48,-54.34,56.77,11.16
485,Forestville,20,CA,1559775617,48,48.74,-69.09,60.8,10.29
486,Dunedin,100,NZ,1559775534,51,-45.87,170.5,53.01,3.0
487,Jinhua,100,CN,1559775617,75,29.11,119.65,80.35,5.53
488,Marsabit,93,KE,1559775617,48,2.34,37.99,83.41,18.5
489,San Miguel,0,AR,1559775618,77,-34.54,-58.72,63.0,5.82
490,Amapa,40,HN,1559775618,63,15.09,-87.97,91.4,17.22
491,Kodinar,1,IN,1559775618,89,20.79,70.7,80.71,12.1
492,Prieska,99,ZA,1559775619,64,-29.67,22.74,46.69,7.52
493,Waitati,100,NZ,1559775619,51,-45.75,170.57,53.01,3.0
494,Rokytne,100,UA,1559775619,96,51.27,27.23,63.43,6.24
495,Sorland,98,NO,1559775619,87,67.67,12.69,49.57,12.82
496,Nemuro,63,JP,1559775352,84,43.32,145.57,48.85,8.81
497,Trani,0,IT,1559775619,72,41.28,16.42,71.01,3.36
498,Riyadh,0,SA,1559775406,13,24.63,46.72,86.0,3.36
499,Pacific Grove,1,US,1559775412,50,36.62,-121.92,90.0,18.34
500,Nogales,1,US,1559775512,9,31.34,-110.94,91.99,10.29
501,Biltine,100,TD,1559775619,37,14.53,20.93,91.15,11.99
502,Tura,99,IN,1559775619,78,25.52,90.21,78.55,6.38
503,Rawson,12,AR,1559775620,37,-43.3,-65.11,54.79,10.67
504,Salazie,86,RE,1559775620,78,-21.03,55.54,73.4,11.41
505,Lubao,75,PH,1559775620,78,14.94,120.6,84.99,2.24
506,Suntar,25,RU,1559775620,42,62.16,117.65,69.55,0.85
507,Batsfjord,40,NO,1559775620,93,70.63,29.72,37.4,9.17
508,Joao Camara,20,BR,1559775620,88,-5.54,-35.82,77.0,3.36
509,Maine-Soroa,62,NE,1559775620,22,13.21,12.02,98.89,6.98
510,San Rafael,14,AR,1559775494,61,-34.61,-68.33,51.55,7.34
511,Najran,0,SA,1559775622,17,17.54,44.22,82.4,4.54
512,Sao Filipe,36,CV,1559775622,84,14.9,-24.5,74.77,13.29
513,Korcula,40,HR,1559775622,93,42.96,17.14,64.4,1.12
514,Homer,1,US,1559775622,71,59.64,-151.54,66.0,14.99
515,Manaus,40,BR,1559775622,83,-3.13,-59.98,80.6,2.24
516,Sao Joao da Barra,40,BR,1559775622,93,-21.64,-41.05,66.2,3.4
517,Hofn,100,IS,1559775622,83,64.25,-15.21,30.13,23.0
518,Bandarbeyla,100,SO,1559775623,74,9.49,50.81,79.09,11.97
519,Madinat Sittah Uktubar,0,EG,1559775623,69,29.82,31.05,77.0,11.41
520,Sharan,37,AF,1559775623,37,33.15,68.78,59.29,9.26
521,Gazli,61,UZ,1559775623,19,40.13,63.45,88.09,11.36
522,Deer Lake,75,CA,1559775604,47,49.18,-57.43,59.0,4.7
523,Divo,95,CI,1559775623,93,5.83,-5.36,72.79,3.47
524,Outjo,0,NA,1559775623,26,-20.11,16.16,60.8,1.12
525,Comarapa,0,BO,1559775623,52,-17.91,-64.53,59.29,4.09
526,Nakusp,96,CA,1559775617,39,50.24,-117.8,66.99,5.01
527,Lake City,75,US,1559775623,63,38.03,-107.32,71.01,9.17
528,Svobodnyy,0,RU,1559775624,83,53.85,40.53,50.0,1.77
529,Kuusamo,0,FI,1559775388,81,65.96,29.19,51.8,4.7
530,Saint-Joseph,0,FR,1559775624,77,43.56,6.97,66.2,3.36
531,Tha Mai,97,TH,1559775624,73,12.62,102.01,87.01,4.65
532,Iwanai,71,JP,1559775624,63,42.97,140.51,64.33,1.72
533,Goderich,100,CA,1559775568,91,43.74,-81.71,63.0,8.01
534,Moryakovskiy Zaton,0,RU,1559775624,81,56.7,84.65,55.0,4.47
535,Porto Recanati,0,IT,1559775625,73,43.44,13.66,73.0,4.7
536,Tahe,60,CN,1559775625,52,52.34,124.71,70.09,2.8
537,Krasnyye Baki,56,RU,1559775625,88,57.13,45.16,56.41,7.27
538,Manicore,91,BR,1559775625,70,-5.81,-61.3,81.07,2.44
539,Dindori,20,IN,1559775625,31,22.94,81.08,85.75,3.24
540,Cairns,100,AU,1559775539,42,-16.92,145.77,68.0,19.46
541,Carutapera,49,BR,1559775625,92,-1.2,-46.02,76.93,5.32
542,Ambon,0,FR,1559775625,93,47.55,-2.56,57.0,1.12
543,Russkaya Polyana,54,RU,1559775625,78,53.78,73.88,50.29,5.95
544,Moose Factory,1,CA,1559775626,81,51.26,-80.61,44.6,16.11
545,Cabreuva,75,BR,1559775606,77,-23.31,-47.13,62.01,6.93
546,Gossaigaon,93,IN,1559775626,78,26.45,89.99,77.29,5.7
547,Benton Harbor,1,US,1559775626,68,42.12,-86.45,78.8,5.82
548,Westport,100,IE,1559775347,88,53.8,-9.52,51.01,15.14
549,Hakui,75,JP,1559775626,82,36.89,136.78,73.0,4.7
550,Mahajanga,20,MG,1559775626,77,-15.72,46.32,69.8,4.7
551,Chengzihe,0,CN,1559775626,46,45.35,131.0,67.39,15.9
552,Monte Escobedo,4,MX,1559775626,35,22.3,-103.58,84.67,14.45
553,Inuvik,40,CA,1559775627,36,68.36,-133.71,60.8,9.17
554,Port Blair,100,IN,1559775627,79,11.67,92.75,84.67,11.59
555,Mulege,0,MX,1559775627,59,26.88,-111.98,80.35,12.24
556,Tazmalt,75,DZ,1559775627,93,36.39,4.4,62.6,6.93
